{"name":"19","long_name":"Tram 19","type":"tram","direzioni":[{"id_relation":"1674754","name":"19 (Risorgimento/S. Pietro → Gerani)","fermate":[{"id_node":"611784777","codice":"","name":"Risorgimento/S. Pietro","ordine":1,"latitudine":"41.9060172","longitudine":"12.4584213"},{"id_node":"1129756716","codice":"","name":"Ottaviano","ordine":2,"latitudine":"41.9100397","longitudine":"12.4580389"},{"id_node":"1587437611","codice":"","name":"Milizie/Distretto Militare","ordine":3,"latitudine":"41.9117796","longitudine":"12.4604399"},{"id_node":"1587437618","codice":"","name":"Lepanto","ordine":4,"latitudine":"41.9128496","longitudine":"12.4648097"},{"id_node":"299832913","codice":"","name":"P.za Cinque Giornate","ordine":5,"latitudine":"41.9139443","longitudine":"12.4690525"},{"id_node":"1117936387","codice":"","name":"Ministero Marina","ordine":6,"latitudine":"41.9156826","longitudine":"12.4742395"},{"id_node":"611831885","codice":"","name":"Belle Arti","ordine":7,"latitudine":"41.918992","longitudine":"12.4741488"},{"id_node":"1809491634","codice":"","name":"Museo Etrusco Villa Giulia","ordine":8,"latitudine":"41.9187736","longitudine":"12.4767189"},{"id_node":"1675888394","codice":"","name":"Galleria Arte Moderna","ordine":9,"latitudine":"41.9168065","longitudine":"12.4811593"},{"id_node":"1675888287","codice":"","name":"Aldrovandi","ordine":10,"latitudine":"41.9181852","longitudine":"12.4844752"},{"id_node":"1675888317","codice":"","name":"Bioparco","ordine":11,"latitudine":"41.9192709","longitudine":"12.4906274"},{"id_node":"1402833275","codice":"","name":"Rossini","ordine":12,"latitudine":"41.9204608","longitudine":"12.4915537"},{"id_node":"1675888443","codice":"","name":"Liegi/Ungheria","ordine":13,"latitudine":"41.9218958","longitudine":"12.4939588"},{"id_node":"1675888435","codice":"","name":"Liegi/Bellini","ordine":14,"latitudine":"41.9206923","longitudine":"12.4969615"},{"id_node":"1675888326","codice":"","name":"Buenos Aires","ordine":15,"latitudine":"41.9179019","longitudine":"12.5004564"},{"id_node":"1675888755","codice":"","name":"V.le Regina Margherita/Nizza","ordine":16,"latitudine":"41.9148689","longitudine":"12.5042292"},{"id_node":"1675888756","codice":"","name":"V.le Regina Margherita/Nomentana","ordine":17,"latitudine":"41.9126636","longitudine":"12.5069759"},{"id_node":"1675888557","codice":"","name":"Regina Margherita/Galeno","ordine":18,"latitudine":"41.9110536","longitudine":"12.5089878"},{"id_node":"1402833280","codice":"","name":"V.le Regina Margherita/Morgagni","ordine":19,"latitudine":"41.9100841","longitudine":"12.5101862"},{"id_node":"1675888518","codice":"","name":"Policlinico","ordine":20,"latitudine":"41.907613","longitudine":"12.5132662"},{"id_node":"1402833278","codice":"","name":"Regina Elena/V.le Università","ordine":21,"latitudine":"41.905893","longitudine":"12.5154057"},{"id_node":"1675888742","codice":"","name":"Università La Sapienza","ordine":22,"latitudine":"41.9043837","longitudine":"12.5173227"},{"id_node":"309299192","codice":"","name":"Verano","ordine":23,"latitudine":"41.9022597","longitudine":"12.5190615"},{"id_node":"929586801","codice":"","name":"Verano/De Lollis","ordine":24,"latitudine":"41.9015991","longitudine":"12.5185542"},{"id_node":"1675888582","codice":"","name":"Reti","ordine":25,"latitudine":"41.8990017","longitudine":"12.518078"},{"id_node":"610647192","codice":"","name":"Scalo S. Lorenzo/Ausoni","ordine":26,"latitudine":"41.8970795","longitudine":"12.5194263"},{"id_node":"610644803","codice":"","name":"Scalo S. Lorenzo/Sardi","ordine":27,"latitudine":"41.8955397","longitudine":"12.5181751"},{"id_node":"1675888629","codice":"","name":"Scalo S. Lorenzo/Talamo","ordine":28,"latitudine":"41.8939256","longitudine":"12.5167059"},{"id_node":"611865474","codice":"","name":"Scalo S. Lorenzo","ordine":29,"latitudine":"41.8930961","longitudine":"12.5160003"},{"id_node":"267349085","codice":"","name":"P.za di Porta Maggiore","ordine":30,"latitudine":"41.8915723","longitudine":"12.5147016"},{"id_node":"260772512","codice":"","name":"Labicano/Porta Maggiore","ordine":31,"latitudine":"41.8914526","longitudine":"12.5155515"},{"id_node":"1402819220","codice":"","name":"Prenestina/Caballini","ordine":32,"latitudine":"41.8914108","longitudine":"12.5199081"},{"id_node":"610918119","codice":"","name":"Prenestina/Officine ATAC","ordine":33,"latitudine":"41.8910648","longitudine":"12.5251674"},{"id_node":"1733524732","codice":"","name":"P.le Prenestino","ordine":34,"latitudine":"41.8913355","longitudine":"12.5277337"},{"id_node":"610918117","codice":"","name":"Prenestina/Giovenale","ordine":35,"latitudine":"41.892028","longitudine":"12.531624"},{"id_node":"295732883","codice":"","name":"Prenestina/Giussano","ordine":36,"latitudine":"41.8923362","longitudine":"12.5345668"},{"id_node":"295732624","codice":"","name":"Prenestina/Gattamelata","ordine":37,"latitudine":"41.8924246","longitudine":"12.5365549"},{"id_node":"1733524710","codice":"","name":"L.go Preneste","ordine":38,"latitudine":"41.8924302","longitudine":"12.5400705"},{"id_node":"389155848","codice":"","name":"Prenestina/Acqua Bullicante","ordine":39,"latitudine":"41.8927668","longitudine":"12.5424816"},{"id_node":"610918112","codice":"","name":"Prenestina/Telese","ordine":40,"latitudine":"41.8933642","longitudine":"12.5474714"},{"id_node":"1733524772","codice":"","name":"Prenestina/Irpinia","ordine":41,"latitudine":"41.8938475","longitudine":"12.5514742"},{"id_node":"610918114","codice":"","name":"Prenestina/Olevano Romano","ordine":42,"latitudine":"41.8943273","longitudine":"12.555498"},{"id_node":"1402819222","codice":"","name":"Prenestina/Tor de\u0027 Schiavi","ordine":43,"latitudine":"41.894891","longitudine":"12.5596898"},{"id_node":"1402819216","codice":"","name":"Bresadola","ordine":44,"latitudine":"41.8933441","longitudine":"12.5612027"},{"id_node":"614600144","codice":"","name":"Delpino","ordine":45,"latitudine":"41.8912426","longitudine":"12.5635344"},{"id_node":"614600142","codice":"","name":"Castani/Gelsi","ordine":46,"latitudine":"41.8886903","longitudine":"12.5652786"},{"id_node":"614600141","codice":"","name":"Castani/Gardenie","ordine":47,"latitudine":"41.8860844","longitudine":"12.5661954"},{"id_node":"322193623","codice":"","name":"Castani/Faggi","ordine":48,"latitudine":"41.8846213","longitudine":"12.5668502"},{"id_node":"614600143","codice":"","name":"Frassini","ordine":49,"latitudine":"41.8849362","longitudine":"12.5682284"},{"id_node":"1733524706","codice":"","name":"Gerani","ordine":50,"latitudine":"41.8857736","longitudine":"12.5668909"}]},{"id_relation":"385217","name":"19 (Gerani → Risorgimento/S. Pietro)","fermate":[{"id_node":"1733524706","codice":"","name":"Gerani","ordine":1,"latitudine":"41.8857736","longitudine":"12.5668909"},{"id_node":"1733524699","codice":"","name":"Castani/Gelsi","ordine":2,"latitudine":"41.8883169","longitudine":"12.5654173"},{"id_node":"1402819219","codice":"","name":"Parlatore","ordine":3,"latitudine":"41.8909418","longitudine":"12.5644982"},{"id_node":"1402819215","codice":"","name":"Bresadola","ordine":4,"latitudine":"41.8928491","longitudine":"12.5613801"},{"id_node":"1402819221","codice":"","name":"Prenestina/Tor de\u0027 Schiavi","ordine":5,"latitudine":"41.8946975","longitudine":"12.5581157"},{"id_node":"610918114","codice":"","name":"Prenestina/Olevano Romano","ordine":6,"latitudine":"41.8943273","longitudine":"12.555498"},{"id_node":"1733524772","codice":"","name":"Prenestina/Irpinia","ordine":7,"latitudine":"41.8938475","longitudine":"12.5514742"},{"id_node":"610918112","codice":"","name":"Prenestina/Telese","ordine":8,"latitudine":"41.8933642","longitudine":"12.5474714"},{"id_node":"389155848","codice":"","name":"Prenestina/Acqua Bullicante","ordine":9,"latitudine":"41.8927668","longitudine":"12.5424816"},{"id_node":"1733524753","codice":"","name":"Prenestina/Conti","ordine":10,"latitudine":"41.8923903","longitudine":"12.5398181"},{"id_node":"295732624","codice":"","name":"Prenestina/Gattamelata","ordine":11,"latitudine":"41.8924246","longitudine":"12.5365549"},{"id_node":"295732883","codice":"","name":"Prenestina/Giussano","ordine":12,"latitudine":"41.8923362","longitudine":"12.5345668"},{"id_node":"610918117","codice":"","name":"Prenestina/Giovenale","ordine":13,"latitudine":"41.892028","longitudine":"12.531624"},{"id_node":"1733524732","codice":"","name":"P.le Prenestino","ordine":14,"latitudine":"41.8913355","longitudine":"12.5277337"},{"id_node":"610918119","codice":"","name":"Prenestina/Officine ATAC","ordine":15,"latitudine":"41.8910648","longitudine":"12.5251674"},{"id_node":"610918120","codice":"","name":"Prenestina/Caballini","ordine":16,"latitudine":"41.8913083","longitudine":"12.5212175"},{"id_node":"611865474","codice":"","name":"Scalo S. Lorenzo","ordine":17,"latitudine":"41.8930961","longitudine":"12.5160003"},{"id_node":"1675888629","codice":"","name":"Scalo S. Lorenzo/Talamo","ordine":18,"latitudine":"41.8939256","longitudine":"12.5167059"},{"id_node":"610644803","codice":"","name":"Scalo S. Lorenzo/Sardi","ordine":19,"latitudine":"41.8955397","longitudine":"12.5181751"},{"id_node":"610647192","codice":"","name":"Scalo S. Lorenzo/Ausoni","ordine":20,"latitudine":"41.8970795","longitudine":"12.5194263"},{"id_node":"1675888582","codice":"","name":"Reti","ordine":21,"latitudine":"41.8990017","longitudine":"12.518078"},{"id_node":"929586801","codice":"","name":"Verano/De Lollis","ordine":22,"latitudine":"41.9015991","longitudine":"12.5185542"},{"id_node":"309299192","codice":"","name":"Verano","ordine":23,"latitudine":"41.9022597","longitudine":"12.5190615"},{"id_node":"1675888729","codice":"","name":"Università La Sapienza","ordine":24,"latitudine":"41.9041394","longitudine":"12.5176318"},{"id_node":"1402833277","codice":"","name":"Regina Elena/V.le Università","ordine":25,"latitudine":"41.9054234","longitudine":"12.5160013"},{"id_node":"1675888514","codice":"","name":"Policlinico","ordine":26,"latitudine":"41.9073757","longitudine":"12.513559"},{"id_node":"1402833279","codice":"","name":"V.le Regina Margherita/Morgagni","ordine":27,"latitudine":"41.9095566","longitudine":"12.510845"},{"id_node":"1675888557","codice":"","name":"Regina Margherita/Galeno","ordine":28,"latitudine":"41.9110536","longitudine":"12.5089878"},{"id_node":"1675888756","codice":"","name":"V.le Regina Margherita/Nomentana","ordine":29,"latitudine":"41.9126636","longitudine":"12.5069759"},{"id_node":"1675888749","codice":"","name":"V.le Regina Margherita/Nizza","ordine":30,"latitudine":"41.9144732","longitudine":"12.5047203"},{"id_node":"1675888326","codice":"","name":"Buenos Aires","ordine":31,"latitudine":"41.9179019","longitudine":"12.5004564"},{"id_node":"1675888431","codice":"","name":"Liegi/Bellini","ordine":32,"latitudine":"41.9204077","longitudine":"12.4973286"},{"id_node":"1675888440","codice":"","name":"Liegi/Ungheria","ordine":33,"latitudine":"41.9217123","longitudine":"12.494491"},{"id_node":"259291292","codice":"","name":"Rossini","ordine":34,"latitudine":"41.9209527","longitudine":"12.4920606"},{"id_node":"1675888317","codice":"","name":"Bioparco","ordine":35,"latitudine":"41.9192709","longitudine":"12.4906274"},{"id_node":"1675888288","codice":"","name":"Aldrovandi","ordine":36,"latitudine":"41.9187849","longitudine":"12.4855306"},{"id_node":"1675888370","codice":"","name":"Galleria Arte Moderna","ordine":37,"latitudine":"41.916638","longitudine":"12.481539"},{"id_node":"1809491634","codice":"","name":"Museo Etrusco Villa Giulia","ordine":38,"latitudine":"41.9187736","longitudine":"12.4767189"},{"id_node":"295394476","codice":"","name":"Belle Arti","ordine":39,"latitudine":"41.9184568","longitudine":"12.4730455"},{"id_node":"295811051","codice":"","name":"Ministero Marina","ordine":40,"latitudine":"41.9155312","longitudine":"12.4742642"},{"id_node":"1673707945","codice":"","name":"Azuni/Min. Marina","ordine":41,"latitudine":"41.9146776","longitudine":"12.4721979"},{"id_node":"1673708005","codice":"","name":"P.za Cinque Giornate","ordine":42,"latitudine":"41.9137047","longitudine":"12.4680759"},{"id_node":"1673707997","codice":"","name":"Lepanto","ordine":43,"latitudine":"41.9130664","longitudine":"12.4657022"},{"id_node":"1420096445","codice":"","name":"Milizie/Distretto Militare","ordine":44,"latitudine":"41.9120052","longitudine":"12.4613647"},{"id_node":"1224834075","codice":"","name":"Milizie/Angelico","ordine":45,"latitudine":"41.9113311","longitudine":"12.4585989"},{"id_node":"1129756714","codice":"","name":"Ottaviano","ordine":46,"latitudine":"41.9096475","longitudine":"12.4580155"},{"id_node":"611784777","codice":"","name":"Risorgimento/S. Pietro","ordine":47,"latitudine":"41.9060172","longitudine":"12.4584213"}]}]}
