{
    "name": "3",
    "long_name": "Tram 3",
    "type": "tram",
    "direzioni": [{
        "id_relation": "1965412",
        "name": "3 (P.le Ostiense → Valle Giulia)",
        "fermate": [{
            "id_node": "286609213",
            "codice": "",
            "name": "P.le Ostiense",
            "ordine": 1,
            "latitudine": "41.8763553",
            "longitudine": "12.4823757",
			"visibile": true
        }, {
            "id_node": "1675888286",
            "codice": "",
            "name": "Albania",
            "ordine": 2,
            "latitudine": "41.8804189",
            "longitudine": "12.4840574",
			"visibile": false
        }, {
            "id_node": "1675888301",
            "codice": "",
            "name": "Aventino/Circo Massimo",
            "ordine": 3,
            "latitudine": "41.8832859",
            "longitudine": "12.487724"
        }, {
            "id_node": "1675888494",
            "codice": "",
            "name": "Parco Celio",
            "ordine": 4,
            "latitudine": "41.8880981",
            "longitudine": "12.49141"
        }, {
            "id_node": "1675888348",
            "codice": "",
            "name": "Colosseo",
            "ordine": 5,
            "latitudine": "41.8899089",
            "longitudine": "12.4941116"
        }, {
            "id_node": "1675888414",
            "codice": "",
            "name": "Labicana",
            "ordine": 6,
            "latitudine": "41.8898537",
            "longitudine": "12.4980126",
			"visibile": false
        }, {
            "id_node": "1675888482",
            "codice": "",
            "name": "Manzoni/Merulana",
            "ordine": 7,
            "latitudine": "41.8896059",
            "longitudine": "12.5040544",
			"visibile": false
        }, {
            "id_node": "1675888448",
            "codice": "",
            "name": "Manzoni",
            "ordine": 8,
            "latitudine": "41.8902494",
            "longitudine": "12.5061097"
        }, {
            "id_node": "1675888529",
            "codice": "",
            "name": "Porta S. Giovanni/Carlo Felice",
            "ordine": 9,
            "latitudine": "41.886688",
            "longitudine": "12.5091886"
        }, {
            "id_node": "1675888489",
            "codice": "",
            "name": "P.za S. Croce in Gerusalemme",
            "ordine": 10,
            "latitudine": "41.8891291",
            "longitudine": "12.5150774",
			"visibile": false
        }, {
            "id_node": "260772512",
            "codice": "",
            "name": "Labicano/Porta Maggiore",
            "ordine": 11,
            "latitudine": "41.8914526",
            "longitudine": "12.5155515"
        }, {
            "id_node": "611865474",
            "codice": "",
            "name": "Scalo S. Lorenzo",
            "ordine": 12,
            "latitudine": "41.8930961",
            "longitudine": "12.5160003"
        }, {
            "id_node": "1675888629",
            "codice": "",
            "name": "Scalo S. Lorenzo/Talamo",
            "ordine": 13,
            "latitudine": "41.8939256",
            "longitudine": "12.5167059",
			"visibile": false
        }, {
            "id_node": "610644803",
            "codice": "",
            "name": "Scalo S. Lorenzo/Sardi",
            "ordine": 14,
            "latitudine": "41.8955397",
            "longitudine": "12.5181751",
			"visibile": false
        }, {
            "id_node": "610647192",
            "codice": "",
            "name": "Scalo S. Lorenzo/Ausoni",
            "ordine": 15,
            "latitudine": "41.8970795",
            "longitudine": "12.5194263",
			"visibile": false
        }, {
            "id_node": "1675888582",
            "codice": "",
            "name": "Reti",
            "ordine": 16,
            "latitudine": "41.8990017",
            "longitudine": "12.518078"
        }, {
            "id_node": "929586801",
            "codice": "",
            "name": "Verano/De Lollis",
            "ordine": 17,
            "latitudine": "41.9015991",
            "longitudine": "12.5185542",
			"visibile": false
        }, {
            "id_node": "309299192",
            "codice": "",
            "name": "Verano",
            "ordine": 18,
            "latitudine": "41.9022597",
            "longitudine": "12.5190615"
        }, {
            "id_node": "1675888729",
            "codice": "",
            "name": "Università La Sapienza",
            "ordine": 19,
            "latitudine": "41.9041394",
            "longitudine": "12.5176318"
        }, {
            "id_node": "1402833277",
            "codice": "",
            "name": "Regina Elena/V.le Università",
            "ordine": 20,
            "latitudine": "41.9054234",
            "longitudine": "12.5160013",
			"visibile": false
        }, {
            "id_node": "1675888514",
            "codice": "",
            "name": "Policlinico",
            "ordine": 21,
            "latitudine": "41.9073757",
            "longitudine": "12.513559"
        }, {
            "id_node": "1402833279",
            "codice": "",
            "name": "V.le Regina Margherita/Morgagni",
            "ordine": 22,
            "latitudine": "41.9095566",
            "longitudine": "12.510845",
			"visibile": false
        }, {
            "id_node": "1675888557",
            "codice": "",
            "name": "Regina Margherita/Galeno",
            "ordine": 23,
            "latitudine": "41.9110536",
            "longitudine": "12.5089878"
        }, {
            "id_node": "1675888756",
            "codice": "",
            "name": "V.le Regina Margherita/Nomentana",
            "ordine": 24,
            "latitudine": "41.9126636",
            "longitudine": "12.5069759"
        }, {
            "id_node": "1675888749",
            "codice": "",
            "name": "V.le Regina Margherita/Nizza",
            "ordine": 25,
            "latitudine": "41.9144732",
            "longitudine": "12.5047203",
			"visibile": false
        }, {
            "id_node": "1675888326",
            "codice": "",
            "name": "Buenos Aires",
            "ordine": 26,
            "latitudine": "41.9179019",
            "longitudine": "12.5004564"
        }, {
            "id_node": "1675888431",
            "codice": "",
            "name": "Liegi/Bellini",
            "ordine": 27,
            "latitudine": "41.9204077",
            "longitudine": "12.4973286",
			"visibile": false
        }, {
            "id_node": "1675888440",
            "codice": "",
            "name": "Liegi/Ungheria",
            "ordine": 28,
            "latitudine": "41.9217123",
            "longitudine": "12.494491"
        }, {
            "id_node": "259291292",
            "codice": "",
            "name": "Rossini",
            "ordine": 29,
            "latitudine": "41.9209527",
            "longitudine": "12.4920606"
        }, {
            "id_node": "1675888317",
            "codice": "",
            "name": "Bioparco",
            "ordine": 30,
            "latitudine": "41.9192709",
            "longitudine": "12.4906274"
        }, {
            "id_node": "1675888288",
            "codice": "",
            "name": "Aldrovandi",
            "ordine": 31,
            "latitudine": "41.9187849",
            "longitudine": "12.4855306"
        }, {
            "id_node": "1675888370",
            "codice": "",
            "name": "Galleria Arte Moderna",
            "ordine": 32,
            "latitudine": "41.916638",
            "longitudine": "12.481539",
			"visibile": false
        }, {
            "id_node": "813832903",
            "codice": "",
            "name": "Valle Giulia",
            "ordine": 33,
            "latitudine": "41.9170071",
            "longitudine": "12.4803184"
        }]
    }, {
        "id_relation": "1380980",
        "name": "3 (Valle Giulia → P.le Ostiense)",
        "fermate": [{
            "id_node": "813832903",
            "codice": "",
            "name": "Valle Giulia",
            "ordine": 1,
            "latitudine": "41.9170071",
            "longitudine": "12.4803184"
        }, {
            "id_node": "1675888394",
            "codice": "",
            "name": "Galleria Arte Moderna",
            "ordine": 2,
            "latitudine": "41.9168065",
            "longitudine": "12.4811593"
        }, {
            "id_node": "1675888287",
            "codice": "",
            "name": "Aldrovandi",
            "ordine": 3,
            "latitudine": "41.9181852",
            "longitudine": "12.4844752"
        }, {
            "id_node": "1675888317",
            "codice": "",
            "name": "Bioparco",
            "ordine": 4,
            "latitudine": "41.9192709",
            "longitudine": "12.4906274"
        }, {
            "id_node": "1402833275",
            "codice": "",
            "name": "Rossini",
            "ordine": 5,
            "latitudine": "41.9204608",
            "longitudine": "12.4915537"
        }, {
            "id_node": "1675888443",
            "codice": "",
            "name": "Liegi/Ungheria",
            "ordine": 6,
            "latitudine": "41.9218958",
            "longitudine": "12.4939588"
        }, {
            "id_node": "1675888435",
            "codice": "",
            "name": "Liegi/Bellini",
            "ordine": 7,
            "latitudine": "41.9206923",
            "longitudine": "12.4969615",
			"visibile": false
        }, {
            "id_node": "1675888326",
            "codice": "",
            "name": "Buenos Aires",
            "ordine": 8,
            "latitudine": "41.9179019",
            "longitudine": "12.5004564"
        }, {
            "id_node": "1675888755",
            "codice": "",
            "name": "V.le Regina Margherita/Nizza",
            "ordine": 9,
            "latitudine": "41.9148689",
            "longitudine": "12.5042292",
			"visibile": false
        }, {
            "id_node": "1675888756",
            "codice": "",
            "name": "V.le Regina Margherita/Nomentana",
            "ordine": 10,
            "latitudine": "41.9126636",
            "longitudine": "12.5069759"
        }, {
            "id_node": "1675888557",
            "codice": "",
            "name": "Regina Margherita/Galeno",
            "ordine": 11,
            "latitudine": "41.9110536",
            "longitudine": "12.5089878"
        }, {
            "id_node": "1402833280",
            "codice": "",
            "name": "V.le Regina Margherita/Morgagni",
            "ordine": 12,
            "latitudine": "41.9100841",
            "longitudine": "12.5101862",
			"visibile": false
        }, {
            "id_node": "1675888518",
            "codice": "",
            "name": "Policlinico",
            "ordine": 13,
            "latitudine": "41.907613",
            "longitudine": "12.5132662"
        }, {
            "id_node": "1402833278",
            "codice": "",
            "name": "Regina Elena/V.le Università",
            "ordine": 14,
            "latitudine": "41.905893",
            "longitudine": "12.5154057",
			"visibile": false
        }, {
            "id_node": "1675888742",
            "codice": "",
            "name": "Università La Sapienza",
            "ordine": 15,
            "latitudine": "41.9043837",
            "longitudine": "12.5173227"
        }, {
            "id_node": "309299192",
            "codice": "",
            "name": "Verano",
            "ordine": 16,
            "latitudine": "41.9022597",
            "longitudine": "12.5190615"
        }, {
            "id_node": "929586801",
            "codice": "",
            "name": "Verano/De Lollis",
            "ordine": 17,
            "latitudine": "41.9015991",
            "longitudine": "12.5185542",
			"visibile": false
        }, {
            "id_node": "1675888582",
            "codice": "",
            "name": "Reti",
            "ordine": 18,
            "latitudine": "41.8990017",
            "longitudine": "12.518078"
        }, {
            "id_node": "610647192",
            "codice": "",
            "name": "Scalo S. Lorenzo/Ausoni",
            "ordine": 19,
            "latitudine": "41.8970795",
            "longitudine": "12.5194263",
			"visibile": false
        }, {
            "id_node": "610644803",
            "codice": "",
            "name": "Scalo S. Lorenzo/Sardi",
            "ordine": 20,
            "latitudine": "41.8955397",
            "longitudine": "12.5181751",
			"visibile": false
        }, {
            "id_node": "1675888629",
            "codice": "",
            "name": "Scalo S. Lorenzo/Talamo",
            "ordine": 21,
            "latitudine": "41.8939256",
            "longitudine": "12.5167059",
			"visibile": false
        }, {
            "id_node": "611865474",
            "codice": "",
            "name": "Scalo S. Lorenzo",
            "ordine": 22,
            "latitudine": "41.8930961",
            "longitudine": "12.5160003"
        }, {
            "id_node": "267349085",
            "codice": "",
            "name": "P.za di Porta Maggiore",
            "ordine": 23,
            "latitudine": "41.8915723",
            "longitudine": "12.5147016"
        }, {
            "id_node": "1675888335",
            "codice": "",
            "name": "Carlo Felice",
            "ordine": 24,
            "latitudine": "41.8877321",
            "longitudine": "12.5130718",
			"visibile": false
        }, {
            "id_node": "1675888529",
            "codice": "",
            "name": "Porta S. Giovanni/Carlo Felice",
            "ordine": 25,
            "latitudine": "41.886688",
            "longitudine": "12.5091886"
        }, {
            "id_node": "1675888448",
            "codice": "",
            "name": "Manzoni",
            "ordine": 26,
            "latitudine": "41.8902494",
            "longitudine": "12.5061097"
        }, {
            "id_node": "1672413314",
            "codice": "",
            "name": "Labicana/Merulana",
            "ordine": 27,
            "latitudine": "41.889245",
            "longitudine": "12.5029004",
			"visibile": false
        }, {
            "id_node": "1672413307",
            "codice": "",
            "name": "Labicana",
            "ordine": 28,
            "latitudine": "41.8897171",
            "longitudine": "12.4987298"
        }, {
            "id_node": "1675888356",
            "codice": "",
            "name": "Colosseo/Salvi N.",
            "ordine": 29,
            "latitudine": "41.8898005",
            "longitudine": "12.4940668"
        }, {
            "id_node": "1675888493",
            "codice": "",
            "name": "Parco Celio",
            "ordine": 30,
            "latitudine": "41.8874956",
            "longitudine": "12.4911904"
        }, {
            "id_node": "1675888301",
            "codice": "",
            "name": "Aventino/Circo Massimo",
            "ordine": 31,
            "latitudine": "41.8832859",
            "longitudine": "12.487724"
        }, {
            "id_node": "1675888300",
            "codice": "",
            "name": "Aventino/Albania",
            "ordine": 32,
            "latitudine": "41.8809077",
            "longitudine": "12.4846792",
			"visibile": false
        }, {
            "id_node": "1877017802",
            "codice": "",
            "name": "P.le Ostiense",
            "ordine": 33,
            "latitudine": "41.8761261",
            "longitudine": "12.4822708"
        }]
    }]
}